[
  {
    "id": 145,
    "name": "Tangadan Falls in San Gabriel, La Union",
    "imageUrl": "https://letsgoady.com/wp-content/uploads/2017/06/2017_0520_23545200-01.jpeg",
    "price":,
    "priceCurrency": "PHP",
    "lat": 48.884211,
    "lng": 2.346890
  },
  {
    "id": 148,
    "name": "Immuki Island, Paraoir Balaoan La Union",
    "imageUrl": "https://i.ytimg.com/vi/5un6FVjWyhI/maxresdefault.jpg",
    "price":,
    "priceCurrency": "PHP",
    "lat": 48.885707,
    "lng": 2.343543
  },
  {
    "id": 201,
    "name": "Bahay na Bato, Nalvo Norte Luna La Union!",
    "imageUrl": "http://3c9bl93o71m619w9kn2rfwinkdh-wpengine.netdna-ssl.com/wp-content/uploads/2016/05/Bahay-na-Bato-Nalvo-Norte-1.jpg",
    "price": ,
    "priceCurrency": "PHP",
    "lat": 48.885312,
    "lng": 2.341225
  },
  {
    "id": 205,
    "name": "Grapes Picking in Bauang La Union",
    "imageUrl": "http://windowseat.ph/wp-content/uploads/2016/08/grape-farm-la-union.jpg",
    "price": ,
    "priceCurrency": "PHP",
    "lat": 48.881840,
    "lng": 2.343371
  },
  {
    "id": 210,
    "name": "Halo-Halo de Iloko in San Fernando City La Union",
    "imageUrl": "https://www.detourista.com/wp/wp-content/uploads/2017/04/013-Halo-Halo-de-Iloko-San-Fernando-La-Union-Philippines-170225-162940.jpg",
    "price": ,
    "priceCurrency": "PHP",
    "lat": 48.888839,
    "lng": 2.339208
  },
  {
    "id": 211,
    "name": "Cabua-an, Balaoan, La Union",
    "imageUrl": "https://raw.githubusercontent.com/mariexxJoanna19/activityfinals/master/Capture.JPG",
    "price":1,
    "priceCurrency": "EUR",
    "lat": 48.827855,
    "lng": 2.350774
  }
]
