[
  {
    "id": 145,
    "name": "Tangadan Falls in San Gabriel, La Union",
    "imageUrl": "https://raw.githubusercontent.com/mariexxJoanna19/activityfinals/master/2017_0520_23545200-01.jpeg",
    "price":11,
    "priceCurrency": "PHP",
    "lat": 16.643866,
    "lng":120.448802
  },
  {
    "id": 148,
    "name": "Immuki Island, Paraoir Balaoan La Union",
    "imageUrl": "https://i.ytimg.com/vi/5un6FVjWyhI/maxresdefault.jpg",
    "price":,
    "priceCurrency": "PHP",
    "lat": 16.803200,
    "lng": 120.325544
  },
  {
    "id": 201,
    "name": "Bahay na Bato, Nalvo Norte Luna La Union!",
    "imageUrl": "http://3c9bl93o71m619w9kn2rfwinkdh-wpengine.netdna-ssl.com/wp-content/uploads/2016/05/Bahay-na-Bato-Nalvo-Norte-1.jpg",
    "price": ,
    "priceCurrency": "PHP",
    "lat":  16.847450,
    "lng": 120.351706
  },
  {
    "id": 205,
    "name": "Grapes Picking in Bauang La Union",
    "imageUrl": "http://windowseat.ph/wp-content/uploads/2016/08/grape-farm-la-union.jpg",
    "price": ,
    "priceCurrency": "PHP",
    "lat": 16.460340,
    "lng":  120.334920
  },
  {
    "id": 210,
    "name": "Halo-Halo de Iloko in San Fernando City La Union",
    "imageUrl": "https://www.detourista.com/wp/wp-content/uploads/2017/04/013-Halo-Halo-de-Iloko-San-Fernando-La-Union-Philippines-170225-162940.jpg",
    "price": ,
    "priceCurrency": "PHP",
    "lat":  16.620275,
    "lng": 120.318855
    
  },
  {
    "id": 211,
    "name": "Cabua-an, Balaoan, La Union",
    "imageUrl": "https://raw.githubusercontent.com/mariexxJoanna19/activityfinals/master/Capture.JPG",
    "price":10,
    "priceCurrency": "EUR",
    "lat": 48.827855,
    "lng": 2.350774
  }
]
